[
  { "lat": "", "lng": "", "category": "parks/recreation", "name": "Winnekeni Park", "address": "", "city": "Haverhill", "state": "MA" },
  { "lat": "", "lng": "", "category": "parks/recreation", "name": "Winnekeni Park", "address": "", "city": "Haverhill", "state": "MA" },
  { "lat": "", "lng": "", "category": "parks/recreation", "name": "Winnekeni Park", "address": "", "city": "Haverhill", "state": "MA" },
  { "lat": "", "lng": "", "category": "parks/recreation", "name": "Winnekeni Park", "address": "", "city": "Haverhill", "state": "MA" },
  { "lat": "", "lng": "", "category": "parks/recreation", "name": "Winnekeni Park", "address": "", "city": "Haverhill", "state": "MA" },
  { "lat": "", "lng": "", "category": "parks/recreation", "name": "Winnekeni Park", "address": "", "city": "Haverhill", "state": "MA" },
  { "lat": "", "lng": "", "category": "parks/recreation", "name": "Winnekeni Park", "address": "", "city": "Haverhill", "state": "MA" },
  { "lat": "", "lng": "", "category": "parks/recreation", "name": "Winnekeni Park", "address": "", "city": "Haverhill", "state": "MA" },
  { "lat": "", "lng": "", "category": "parks/recreation", "name": "Winnekeni Park", "address": "", "city": "Haverhill", "state": "MA" },
  { "lat": "", "lng": "", "category": "parks/recreation", "name": "Winnekeni Park", "address": "", "city": "Haverhill", "state": "MA" },
  { "lat": "", "lng": "", "category": "parks/recreation", "name": "Winnekeni Park", "address": "", "city": "Haverhill", "state": "MA" },
  { "lat": "", "lng": "", "category": "institutions", "name": "", "address": "", "city": "Haverhill", "state": "MA" },
  { "lat": "", "lng": "", "category": "groceries", "name": "", "address": "", "city": "Haverhill", "state": "MA" },
  { "lat": "", "lng": "", "category": "restaurants/bars", "name": "", "address": "", "city": "Haverhill", "state": "MA" },
  { "lat": "", "lng": "", "category": "services", "name": "", "address": "", "city": "Haverhill", "state": "MA" },
  { "lat": "", "lng": "", "category": "entertainment", "name": "", "address": "", "city": "Haverhill", "state": "MA" },
  { "lat": "", "lng": "", "category": "shopping", "name": "", "address": "", "city": "Haverhill", "state": "MA" }
]
